[
    {
        "name": "litecoin-project/litecoin",
        "watch": 545,
        "star": 2846,
        "fork": 1772,
        "open_issues": 21,
        "lang": "C++",
        "created_time": "2012-06-13T04:18:26Z",
        "commits": 14900,
        "branches": 6,
        "releases": 207,
        "contributors": 473,
        "lon":103.850771,
        "lat":1.292363,
        "region":"Singapore",
        "address":"111, NORTH BRIDGE ROAD, #08-19, PENINSULA PLAZA, SINGAPORE 179098"
    },
    {
        "name": "input-output-hk/cardano-sl",
        "watch": 326,
        "star": 2050,
        "fork": 288,
        "open_issues": 122,
        "lang": "Haskell",
        "created_time": "2016-10-14T13:44:38Z",
        "commits": 13249,
        "branches": 190,
        "releases": 26,
        "contributors": 59,
        "lon":114.159013,
        "lat":22.282052,
        "region":"Hong Kong",
        "address":"Suites 2001-3, 20th Floor, St. George's Building 2, Ice House Street Central Hong Kong"
    },
    {
        "name": "neo-project/neo",
        "watch": 389,
        "star": 1965,
        "fork": 586,
        "open_issues": 25,
        "lang": "C#",
        "created_time": "2015-05-31T17:02:33Z",
        "commits": 362,
        "branches": 2,
        "releases": 1,
        "contributors": 19,
        "lon":116.458363,
        "lat":39.922515,
        "region":"China",
        "address":"Beijing"
    },
    {
        "name": "stellar/stellar-core",
        "watch": 208,
        "star": 1307,
        "fork": 325,
        "open_issues": 143,
        "lang": "C",
        "created_time": "2014-11-24T17:11:12Z",
        "commits": 3871,
        "branches": 7,
        "releases": 23,
        "contributors": 42,
        "lon":-122.418822,
        "lat":37.764295,
        "region":"USA",
        "address": "160 Capp St, San Francisco, CA 94110"

    },
    {
        "name": "EOSIO/eos",
        "watch": 870,
        "star": 4649,
        "fork": 922,
        "open_issues": 267,
        "lang": "WebAssembly",
        "created_time": "2017-04-05T17:09:53Z",
        "commits": 3171,
        "branches": 52,
        "releases": 33,
        "contributors": 72,
        "lon":-81.371746,
        "lat":19.288950,
        "region":"Grand Cayman Islands",
        "address": "George Town"
    }
]